page_url,location_name,street_address,city,state,zip_postal,country_code,store_number,phone,location_type,latitude,longitude,locator_domain,hours_of_operation,brand_website
https://www.daynurseries.co.uk/daynursery.cfm/searchazref/50003518HOUA,House of Rompa Day Nursery,"Grounds of Wilmslow High School, Holly Road North,",Wilmslow,Cheshire,SK9 1LN,UK,50003518HOUA,<INACCESSIBLE>,<MISSING>,53.3222,-2.23001,daynurseries.co.uk,Opening Days: Mon-Fri; Opening Hours: 0700-1900; Closed: Bank Holidays,houseofrompa.co.uk
https://www.daynurseries.co.uk/daynursery.cfm/searchazref/50003510NEXA,Next Generation Nursery & Schoolies Club Ltd,"118 Wigan Lower Road, Standish Lower Ground,",Wigan,Greater Manchester,WN6 8JP,UK,50003510NEXA,<INACCESSIBLE>,<MISSING>,53.561,-2.66598,daynurseries.co.uk,<MISSING>,<MISSING>
https://www.daynurseries.co.uk/daynursery.cfm/searchazref/50003510JUSA,Busy Bees,"35-37 Walkden Avenue,",Wigan,Greater Manchester,WN1 2JJ,UK,50003510JUSA,<INACCESSIBLE>,<MISSING>,53.5559,-2.63646,daynurseries.co.uk,<MISSING>,<MISSING>
https://www.daynurseries.co.uk/daynursery.cfm/searchazref/50003510HERA,Heron Day Nursery,"St Johns Centre, Brick Kiln Lane,",Wigan,Greater Manchester,WN1 1XH,UK,50003510HERA,<INACCESSIBLE>,<MISSING>,53.5502,-2.63026,daynurseries.co.uk,<MISSING>,herondaynursery.co.uk
https://www.daynurseries.co.uk/daynursery.cfm/searchazref/50003510KIDA,Little Acorns Day Nursery (Springfield),"Throstlenest Avenue,",Wigan,Greater Manchester,WN6 7AS,UK,50003510KIDA,<INACCESSIBLE>,<MISSING>,53.5536,-2.64696,daynurseries.co.uk,<MISSING>,<MISSING>
https://www.daynurseries.co.uk/daynursery.cfm/searchazref/50003510LANA,Langtree Hall Childrens Nursery,"Langtree Hall Farm, Langtree Lane, Standish,",Wigan,Greater Manchester,WN6 0QQ,UK,50003510LANA,<INACCESSIBLE>,<MISSING>,53.5957,-2.66629,daynurseries.co.uk,<MISSING>,<MISSING>
https://www.daynurseries.co.uk/daynursery.cfm/searchazref/50003510FIRA,First Steps Private Day Nursery (Pennington),"Kirkham Road, Pennington,",Leigh,Greater Manchester,WN7 3UQ,UK,50003510FIRA,<INACCESSIBLE>,<MISSING>,53.4863,-2.52907,daynurseries.co.uk,<MISSING>,<MISSING>
https://www.daynurseries.co.uk/daynursery.cfm/searchazref/50003510KATA,Kates Kindergarden,"74 Smiths Lane, Hindley Green,",Wigan,Greater Manchester,WN2 4XR,UK,50003510KATA,<INACCESSIBLE>,<MISSING>,53.5135,-2.54766,daynurseries.co.uk,<MISSING>,<MISSING>
https://www.daynurseries.co.uk/daynursery.cfm/searchazref/50003510MADA,Madinah Private Day Nursery,"Plank Lane,",Leigh,Greater Manchester,WN7 4QE,UK,50003510MADA,<INACCESSIBLE>,<MISSING>,53.4943,-2.55043,daynurseries.co.uk,<MISSING>,<MISSING>
https://www.daynurseries.co.uk/daynursery.cfm/searchazref/50003510REDA,Redwood House Private Day Nursery,"128-130 Orrell Road, Orrell,",Wigan,Greater Manchester,WN5 8HJ,UK,50003510REDA,<INACCESSIBLE>,<MISSING>,53.5384,-2.69485,daynurseries.co.uk,<MISSING>,<MISSING>
https://www.daynurseries.co.uk/daynursery.cfm/searchazref/50003510ABCB,ABC Private Day Nursery,"235 Orrell Road, Orrell,",Wigan,Greater Manchester,WN5 8LY,UK,50003510ABCB,<INACCESSIBLE>,<MISSING>,53.5391,-2.70067,daynurseries.co.uk,<MISSING>,<MISSING>
https://www.daynurseries.co.uk/daynursery.cfm/searchazref/50003510IONA,Little Foxes (Wigan) Ltd,"Iona House, Billinge Road, Highfield,",Wigan,Greater Manchester,WN3 6BL,UK,50003510IONA,<INACCESSIBLE>,<MISSING>,53.5292,-2.67302,daynurseries.co.uk,<MISSING>,<MISSING>
https://www.daynurseries.co.uk/daynursery.cfm/searchazref/50003510HOLA,Holly Tree Day Nursery Ltd,"9 Tracks Lane, Billinge,",Wigan,Greater Manchester,WN5 7BL,UK,50003510HOLA,<INACCESSIBLE>,<MISSING>,53.5229,-2.71202,daynurseries.co.uk,<MISSING>,<MISSING>
https://www.daynurseries.co.uk/daynursery.cfm/searchazref/50003518OAKA,Footsteps Wilmslow,"Tudor Road,",Wilmslow,Cheshire,SK9 2HB,UK,50003518OAKA,<INACCESSIBLE>,<MISSING>,53.336,-2.20819,daynurseries.co.uk,<MISSING>,<MISSING>
https://www.daynurseries.co.uk/daynursery.cfm/searchazref/50003518CHAA,Chapel Grange Montessori Nursery,"Chapel Grange, Dean Row Road,",Wilmslow,Cheshire,SK9 2BU,UK,50003518CHAA,<INACCESSIBLE>,<MISSING>,53.3325,-2.19455,daynurseries.co.uk,<MISSING>,<MISSING>
https://www.daynurseries.co.uk/daynursery.cfm/searchazref/50003518NOAA,Noahs Day Nursery,"19 Crossfield Road, Handforth,",Wilmslow,Cheshire,SK9 3LN,UK,50003518NOAA,<INACCESSIBLE>,<MISSING>,53.3493,-2.21447,daynurseries.co.uk,<MISSING>,<MISSING>
https://www.daynurseries.co.uk/daynursery.cfm/searchazref/50003518LITB,Little Acorns Day Nursery,"223 Wilmslow Road, Handforth,",Wilmslow,Cheshire,SK9 3JZ,UK,50003518LITB,<INACCESSIBLE>,<MISSING>,53.3579,-2.21959,daynurseries.co.uk,<MISSING>,<MISSING>
https://www.daynurseries.co.uk/daynursery.cfm/searchazref/50003518KIDC,Bright Horizons Clairmont Day Nursery and Preschool,"Clairmont House, 126 Gravel Lane,",Wilmslow,Cheshire,SK9 6EG,UK,50003518KIDC,<INACCESSIBLE>,<MISSING>,53.3141,-2.25347,daynurseries.co.uk,<MISSING>,<MISSING>
https://www.daynurseries.co.uk/daynursery.cfm/searchazref/50003518POLA,Pollyanna's Day Nursery,"Prestbury Village Hall, Macclesfield Road, Prestbury,",Macclesfield,Cheshire,SK10 4BN,UK,50003518POLA,<INACCESSIBLE>,<MISSING>,53.2861,-2.15171,daynurseries.co.uk,<MISSING>,<MISSING>
https://www.daynurseries.co.uk/daynursery.cfm/searchazref/50003518PREA,Bright Horizons Prestbury Day Nursery and Preschool,"Alderley Road, Prestbury,",Macclesfield,Cheshire,SK10 4RH,UK,50003518PREA,<INACCESSIBLE>,<MISSING>,53.2755,-2.1637,daynurseries.co.uk,<MISSING>,<MISSING>
https://www.daynurseries.co.uk/daynursery.cfm/searchazref/50003518SCAA,Scamps Macclesfield,"Poplar Road, South Park,",Macclesfield,Cheshire,SK11 8AT,UK,50003518SCAA,<INACCESSIBLE>,<MISSING>,53.2533,-2.12841,daynurseries.co.uk,<MISSING>,<MISSING>
https://www.daynurseries.co.uk/daynursery.cfm/searchazref/50003518MERA,The Mere Nursery,"5 Chester Road, Mere,",Knutsford,Cheshire,WA16 0PU,UK,50003518MERA,<INACCESSIBLE>,<MISSING>,53.329,-2.41049,daynurseries.co.uk,<MISSING>,<MISSING>
https://www.daynurseries.co.uk/daynursery.cfm/searchazref/50003518YORA,Poppies Day Nursery,"Sugar Pit Lane,",Knutsford,Cheshire,WA16 0NH,UK,50003518YORA,<INACCESSIBLE>,<MISSING>,53.309,-2.38531,daynurseries.co.uk,<MISSING>,elmscot.co.uk
https://www.daynurseries.co.uk/daynursery.cfm/searchazref/50003518CHEA,High Hopes Day Nursery,"Chain and Gate, Congleton Road,",Macclesfield,Cheshire,SK11 9JA,UK,50003518CHEA,<INACCESSIBLE>,<MISSING>,53.2026,-2.18941,daynurseries.co.uk,<MISSING>,<MISSING>
https://www.daynurseries.co.uk/daynursery.cfm/searchazref/50003518STEA,Nina's Montessori Nursery (Macclesfield) Ltd,"8 Prestbury Road,",Macclesfield,Cheshire,SK10 1AU,UK,50003518STEA,<INACCESSIBLE>,<MISSING>,53.2613,-2.13338,daynurseries.co.uk,<MISSING>,<MISSING>
https://www.daynurseries.co.uk/daynursery.cfm/searchazref/50003518RASA,Tiny Adventures Day Nursery,"Macclesfield Learning Zone, Park Lane,",Macclesfield,Cheshire,SK11 8JR,UK,50003518RASA,<INACCESSIBLE>,<MISSING>,53.252069,-2.134438,daynurseries.co.uk,<MISSING>,tinyadventures.co.uk
https://www.daynurseries.co.uk/daynursery.cfm/searchazref/50003518HOOA,Hooton Childcare,"Hooton Farm House, Hooton Road, Hooton,",Ellesmere Port,Cheshire,CH66 1QU,UK,50003518HOOA,<INACCESSIBLE>,<MISSING>,53.2992,-2.9619,daynurseries.co.uk,<MISSING>,<MISSING>
https://www.daynurseries.co.uk/daynursery.cfm/searchazref/50003518GRAA,Grange House Day Nursery,"Smithy Lane, Little Sutton,",Ellesmere Port,Cheshire,CH66 3RP,UK,50003518GRAA,<INACCESSIBLE>,<MISSING>,53.2838,-2.9443,daynurseries.co.uk,<MISSING>,grangehousedaynursery.co.uk
https://www.daynurseries.co.uk/daynursery.cfm/searchazref/50003518LEDA,Ledsham Park Day Nursery,"Fernbank, Ledsham Road, Little Sutton,",Ellesmere Port,Cheshire,CH66 4QN,UK,50003518LEDA,<INACCESSIBLE>,<MISSING>,53.2812,-2.96012,daynurseries.co.uk,<MISSING>,busy05.co.uk
https://www.daynurseries.co.uk/daynursery.cfm/searchazref/50003518OAKC,"Buttercups Private Day Nursery and Pre-school, Ellesmere Port","Smithy House, Stanney Lane, Little Stanney, Ellesmere Port,",Chester,Cheshire,CH2 4HT,UK,50003518OAKC,<INACCESSIBLE>,<MISSING>,53.2616,-2.88254,daynurseries.co.uk,<MISSING>,<MISSING>
https://www.daynurseries.co.uk/daynursery.cfm/searchazref/50003518GREA,Great Sutton Day Nursery,"Alvanley Road, Great Sutton,",Ellesmere Port,Cheshire,CH66 3JZ,UK,50003518GREA,<INACCESSIBLE>,<MISSING>,53.2767,-2.92768,daynurseries.co.uk,<MISSING>,<MISSING>
https://www.daynurseries.co.uk/daynursery.cfm/searchazref/50003518CHIA,Childsplay Day Nursery,"St Francis Church, Seymour Drive,",Ellesmere Port,Cheshire,CH66 1LZ,UK,50003518CHIA,<INACCESSIBLE>,<MISSING>,53.2845,-2.92601,daynurseries.co.uk,<MISSING>,<MISSING>
https://www.daynurseries.co.uk/daynursery.cfm/searchazref/50003518BERA,Early Learning Academy Berwick Road,"Berwick Road, Little Sutton,",Ellesmere Port,Cheshire,CH66 4PN,UK,50003518BERA,<INACCESSIBLE>,<MISSING>,53.2851,-2.94951,daynurseries.co.uk,<MISSING>,<MISSING>
https://www.daynurseries.co.uk/daynursery.cfm/searchazref/50003518HOPA,Busy Bees,"Parkgate Road,",Chester,Cheshire,CH1 4BE,UK,50003518HOPA,<INACCESSIBLE>,<MISSING>,53.2088,-2.90684,daynurseries.co.uk,<MISSING>,<MISSING>
https://www.daynurseries.co.uk/daynursery.cfm/searchazref/50003518CHEB,Chestnut House Day Nursery,"Church Road, Saughall,",Chester,Cheshire,CH1 6EN,UK,50003518CHEB,<INACCESSIBLE>,<MISSING>,53.2238,-2.95837,daynurseries.co.uk,<MISSING>,<MISSING>
https://www.daynurseries.co.uk/daynursery.cfm/searchazref/50003518GUIA,Guilden Sutton Private Day Nursery,"AV Wilding Estates, Guilden Sutton Lane,",Chester,Cheshire,CH3 7EX,UK,50003518GUIA,<INACCESSIBLE>,<MISSING>,53.2072,-2.84245,daynurseries.co.uk,<MISSING>,<MISSING>
https://www.daynurseries.co.uk/daynursery.cfm/searchazref/50003518HOOB,Hoole Bank Nursery,"Hill Croft, Hoole Bank,",Chester,Cheshire,CH2 4ES,UK,50003518HOOB,<INACCESSIBLE>,<MISSING>,53.2168,-2.85321,daynurseries.co.uk,<MISSING>,<MISSING>
https://www.daynurseries.co.uk/daynursery.cfm/searchazref/50003518SPIA,The Spinney Day Nursery Hoole Village,"Warrington Road, Hoole Village,",Chester,Cheshire,CH2 3PA,UK,50003518SPIA,<INACCESSIBLE>,<MISSING>,53.2088,-2.85454,daynurseries.co.uk,<MISSING>,<MISSING>
https://www.daynurseries.co.uk/daynursery.cfm/searchazref/50003518KIDE,Bright Horizons Countess of Chester Day Nursery and Preschool,"Countess of Chester Health Park, Liverpool Road,",Chester,Cheshire,CH2 1UL,UK,50003518KIDE,<INACCESSIBLE>,<MISSING>,53.2118,-2.89903,daynurseries.co.uk,<MISSING>,<MISSING>
https://www.daynurseries.co.uk/daynursery.cfm/searchazref/50003518ASHA,Jigsaw Ash Tree Farm Day Nursery,"Ashgrove Farm, Wrexham Road,",Chester,Cheshire,CH4 7QR,UK,50003518ASHA,<INACCESSIBLE>,<MISSING>,53.178,-2.89709,daynurseries.co.uk,<MISSING>,<MISSING>
https://www.daynurseries.co.uk/daynursery.cfm/searchazref/50003518BENA,Benison Day Nursery,"Rake Lane, Eccleston,",Chester,Cheshire,CH4 9JN,UK,50003518BENA,<INACCESSIBLE>,<MISSING>,53.1523,-2.90152,daynurseries.co.uk,<MISSING>,<MISSING>
https://www.daynurseries.co.uk/daynursery.cfm/searchazref/50003518JIGA,Jigsaw Curzon House Nursery,"Wrexham Road, Eccleston,",Chester,Cheshire,CH4 9DQ,UK,50003518JIGA,<INACCESSIBLE>,<MISSING>,53.1586,-2.90964,daynurseries.co.uk,<MISSING>,<MISSING>
https://www.daynurseries.co.uk/daynursery.cfm/searchazref/50003518LITD,Elmscot Chester Day Nursery & Nursery School,"Egerton Street,",Chester,Cheshire,CH1 3ND,UK,50003518LITD,<INACCESSIBLE>,<MISSING>,53.1944,-2.88381,daynurseries.co.uk,<MISSING>,elmscot.co.uk
https://www.daynurseries.co.uk/daynursery.cfm/searchazref/50003518NOAB,Kids Planet Day Nurseries - Great Boughton,"Vaughans Lane, Great Broughton,",Chester,Cheshire,CH3 5XF,UK,50003518NOAB,<INACCESSIBLE>,<MISSING>,53.1844,-2.86441,daynurseries.co.uk,<MISSING>,<MISSING>
https://www.daynurseries.co.uk/daynursery.cfm/searchazref/50003518ASHB,Ashton House Nursery - Ashton Hayes,"Church Road, Ashton Hayes,",Chester,Cheshire,CH3 8AB,UK,50003518ASHB,<INACCESSIBLE>,<MISSING>,53.2207,-2.74069,daynurseries.co.uk,<MISSING>,<MISSING>
https://www.daynurseries.co.uk/daynursery.cfm/searchazref/50003518SMAA,Smarties Nursery,"Gowy Bank Farm, Cotton Edmunds,",Chester,Cheshire,CH3 7PZ,UK,50003518SMAA,<INACCESSIBLE>,<MISSING>,53.1900492903,-2.80302335037,daynurseries.co.uk,<MISSING>,smartiesnursery.com
https://www.daynurseries.co.uk/daynursery.cfm/searchazref/50003507DAVA,Nina's Nursery (Davenport) Ltd,"56 Devonshire Park Road, Davenport,",Stockport,Greater Manchester,SK2 6JW,UK,50003507DAVA,<INACCESSIBLE>,<MISSING>,53.3902,-2.14968,daynurseries.co.uk,<MISSING>,<MISSING>
https://www.daynurseries.co.uk/daynursery.cfm/searchazref/50003507HAPA,Kids Planet Day Nurseries - Davenport,"Heath Road, Davenport,",Stockport,Greater Manchester,SK2 6JJ,UK,50003507HAPA,<INACCESSIBLE>,<MISSING>,53.3941,-2.15465,daynurseries.co.uk,<MISSING>,<MISSING>
https://www.daynurseries.co.uk/daynursery.cfm/searchazref/50003507HAZA,Hazelwood Nursery,"38 Edgeley Road,",Stockport,Greater Manchester,SK3 9NQ,UK,50003507HAZA,<INACCESSIBLE>,<MISSING>,53.4003,-2.1755,daynurseries.co.uk,<MISSING>,<MISSING>
https://www.daynurseries.co.uk/daynursery.cfm/searchazref/50003507HAZA,Hazelwood Nursery,"38 Edgeley Road,",Stockport,Greater Manchester,SK3 9NQ,UK,50003507HAZA,<INACCESSIBLE>,<MISSING>,53.4003,-2.1755,daynurseries.co.uk,<MISSING>,<MISSING>
